,ID,Region Code,Region,Area Code,Area,Percent Turnout,Valid Votes,Remain,Leave,Percent Remain,Percent Leave,Address,LAT,LONG
0,108,E12000006,East,E06000031,Peterborough,72.35,87392,34176,53216,39.11,60.89,"Peterborough, United Kingdom",52.5738875,-0.24167
1,109,E12000006,East,E06000032,Luton,66.31,84481,36708,47773,43.45,56.55,"Luton, United Kingdom",51.89107295,-0.423030307620178
2,112,E12000006,East,E06000033,Southend-on-Sea,72.9,93870,39348,54522,41.92,58.08,"Southend-on-Sea, United Kingdom",51.54063195,0.716114672519414
3,113,E12000006,East,E06000034,Thurrock,72.75,79916,22151,57765,27.72,72.28,"Thurrock, United Kingdom",51.5080169,0.396281764543767
4,110,E12000006,East,E06000055,Bedford,72.06,86066,41497,44569,48.22,51.78,"Bedford, United Kingdom",52.1363806,-0.467504
5,111,E12000006,East,E06000056,Central Bedfordshire,77.89,158804,69670,89134,43.87,56.13,"Central Bedfordshire, United Kingdom",51.99803275,-0.47915132854056
6,184,E12000006,East,E07000008,Cambridge,72.22,57799,42682,15117,73.85,26.15,"Cambridge, United Kingdom",52.2033051,0.124862
7,185,E12000006,East,E07000009,East Cambridgeshire,77.08,48086,23599,24487,49.08,50.92,"East Cambridgeshire, United Kingdom",52.33498865,0.26291203937677
8,186,E12000006,East,E07000010,Fenland,73.69,52626,15055,37571,28.61,71.39,"Fenland, United Kingdom",52.5628706,0.0101147913698685
9,187,E12000006,East,E07000011,Huntingdonshire,77.82,99927,45729,54198,45.76,54.24,"Huntingdonshire, United Kingdom",52.37108795,-0.22352972889663
10,188,E12000006,East,E07000012,South Cambridgeshire,81.21,93189,56128,37061,60.23,39.77,"South Cambridgeshire, United Kingdom",52.179618,-0.00340000479568198
11,222,E12000006,East,E07000066,Basildon,73.86,97999,30748,67251,31.38,68.62,"Basildon, United Kingdom",51.5681417,0.4567961
12,223,E12000006,East,E07000067,Braintree,76.67,86236,33523,52713,38.87,61.13,"Braintree, United Kingdom",51.8790108,0.5501584
13,224,E12000006,East,E07000068,Brentwood,79.5,46704,19077,27627,40.85,59.15,"Brentwood, United Kingdom",51.6137982,0.299462050341318
14,225,E12000006,East,E07000069,Castle Point,75.38,51845,14154,37691,27.3,72.7,"Castle Point, United Kingdom",51.5444908,0.584033242789984
15,226,E12000006,East,E07000070,Chelmsford,77.6,100794,47545,53249,47.17,52.83,"Chelmsford, United Kingdom",51.7345436,0.4724544
16,227,E12000006,East,E07000071,Colchester,75.11,95719,44414,51305,46.4,53.6,"Colchester, United Kingdom",51.8931303,0.9046293
17,228,E12000006,East,E07000072,Epping Forest,76.89,76852,28676,48176,37.31,62.69,"Epping Forest, United Kingdom",51.71343265,0.15360142919373
18,229,E12000006,East,E07000073,Harlow,73.56,43469,13867,29602,31.9,68.1,"Harlow, United Kingdom",51.7676194,0.0974893
19,230,E12000006,East,E07000074,Maldon,79.17,38831,14529,24302,37.42,62.58,"Maldon, United Kingdom",51.7155563,0.684354757425754
20,231,E12000006,East,E07000075,Rochford,78.81,52447,17510,34937,33.39,66.61,"Rochford, United Kingdom",51.5840602,0.678713093564377
21,232,E12000006,East,E07000076,Tendring,74.4,82657,25210,57447,30.5,69.5,"Tendring, United Kingdom",51.8787081,1.120087626436
22,233,E12000006,East,E07000077,Uttlesford,80.28,51943,25619,26324,49.32,50.68,"Uttlesford, United Kingdom",51.9299895,0.270836475135189
23,251,E12000006,East,E07000095,Broxbourne,73.78,50872,17166,33706,33.74,66.26,"Broxbourne, United Kingdom",51.7465723,-0.0190781
24,252,E12000006,East,E07000096,Dacorum,79.21,86244,42542,43702,49.33,50.67,"Dacorum, United Kingdom",51.76895405,-0.551550918756206
25,254,E12000006,East,E07000098,Hertsmere,76.62,56125,27593,28532,49.16,50.84,"Hertsmere, United Kingdom",51.6808298,-0.268111260671421
26,255,E12000006,East,E07000099,North Hertfordshire,78.27,77672,42234,35438,54.37,45.63,"North Hertfordshire, United Kingdom",51.95686495,-0.223050807841725
27,258,E12000006,East,E07000102,Three Rivers,78.5,52848,25751,27097,48.73,51.27,"Three Rivers, United Kingdom",51.6701376,-0.473801222792426
28,259,E12000006,East,E07000103,Watford,71.68,46586,23167,23419,49.73,50.27,"Watford, United Kingdom",51.6553875,-0.3957424
29,299,E12000006,East,E07000143,Breckland,74.34,73548,26313,47235,35.78,64.22,"Breckland, United Kingdom",52.5903063,0.759035766233695
30,300,E12000006,East,E07000144,Broadland,78.37,77737,35469,42268,45.63,54.37,"Broadland, United Kingdom",52.6928977,1.25648751941622
31,301,E12000006,East,E07000145,Great Yarmouth,69.06,50128,14284,35844,28.5,71.5,"Great Yarmouth, United Kingdom",52.6072426,1.7310768
32,302,E12000006,East,E07000146,King's Lynn and West Norfolk,74.75,85080,28587,56493,33.6,66.4,"King's Lynn and West Norfolk, United Kingdom",52.71316265,0.434874923483566
33,303,E12000006,East,E07000147,North Norfolk,76.84,63790,26214,37576,41.09,58.91,"North Norfolk, United Kingdom",52.835652,1.12765976862862
34,304,E12000006,East,E07000148,Norwich,69.12,66366,37326,29040,56.24,43.76,"Norwich, United Kingdom",52.628606,1.29227
35,305,E12000006,East,E07000149,South Norfolk,78.54,80358,38817,41541,48.31,51.69,"South Norfolk, United Kingdom",52.5169106,1.36616778144338
36,345,E12000006,East,E07000200,Babergh,78.26,55242,25309,29933,45.81,54.19,"Babergh, United Kingdom",52.06297535,0.912224156851377
37,346,E12000006,East,E07000201,Forest Heath,72.62,27951,9791,18160,35.03,64.97,"Forest Heath, United Kingdom",52.3326306,0.538684836395467
38,347,E12000006,East,E07000202,Ipswich,72.51,66353,27698,38655,41.74,58.26,"Ipswich, United Kingdom",52.0579495,1.1526345
39,348,E12000006,East,E07000203,Mid Suffolk,78.16,61185,27391,33794,44.77,55.23,"Mid Suffolk, United Kingdom",52.23476185,1.04513426316853
40,349,E12000006,East,E07000204,St Edmundsbury,76.72,62210,26986,35224,43.38,56.62,"St Edmundsbury, United Kingdom",52.22719735,0.690250087473071
41,350,E12000006,East,E07000205,Suffolk Coastal,80.68,79184,37218,41966,47.0,53.0,"Suffolk Coastal, United Kingdom",52.15062575,1.39956376611362
42,351,E12000006,East,E07000206,Waveney,72.67,65646,24356,41290,37.1,62.9,"Waveney, United Kingdom",52.43077265,1.55345361559746
43,256,E12000006,East,E07000240,St Albans,82.51,86445,54208,32237,62.71,37.29,"St Albans, United Kingdom",51.7492956,-0.3422525
44,260,E12000006,East,E07000241,Welwyn Hatfield,75.04,58610,27550,31060,47.01,52.99,"Welwyn Hatfield, United Kingdom",51.77310555,-0.209516952973229
45,253,E12000006,East,E07000242,East Hertfordshire,80.4,85366,42372,42994,49.64,50.36,"East Hertfordshire, United Kingdom",51.86567885,0.0124850626536731
46,257,E12000006,East,E07000243,Stevenage,73.7,45785,18659,27126,40.75,59.25,"Stevenage, United Kingdom",51.9035099,-0.2013367
47,88,E12000004,East Midlands,E06000015,Derby,70.53,120655,51612,69043,42.78,57.22,"Derby, United Kingdom",52.9212617,-1.476149
48,89,E12000004,East Midlands,E06000016,Leicester,65.15,138972,70980,67992,51.08,48.92,"Leicester, United Kingdom",52.6367811,-1.1312288
49,90,E12000004,East Midlands,E06000017,Rutland,78.2,22966,11353,11613,49.43,50.57,"Rutland, United Kingdom",52.6423036,-0.663264207702667
50,91,E12000004,East Midlands,E06000018,Nottingham,61.82,120661,59318,61343,49.16,50.84,"Nottingham, United Kingdom",52.9534161,-1.1492772
51,195,E12000004,East Midlands,E07000032,Amber Valley,76.34,73820,29319,44501,39.72,60.28,"Amber Valley, United Kingdom",53.0290384,-1.46250300967006
52,196,E12000004,East Midlands,E07000033,Bolsover,72.33,41972,12242,29730,29.17,70.83,"Bolsover, United Kingdom",53.228666,-1.2912755
53,197,E12000004,East Midlands,E07000034,Chesterfield,71.92,57424,22946,34478,39.96,60.04,"Chesterfield, United Kingdom",53.2352134,-1.4264096
54,198,E12000004,East Midlands,E07000035,Derbyshire Dales,81.92,46728,22633,24095,48.44,51.56,"Derbyshire Dales, United Kingdom",53.1302876,-1.65617317896854
55,199,E12000004,East Midlands,E07000036,Erewash,75.99,66530,25791,40739,38.77,61.23,"Erewash, United Kingdom",52.93800485,-1.35131713923961
56,200,E12000004,East Midlands,E07000037,High Peak,75.69,54833,27116,27717,49.45,50.55,"High Peak, United Kingdom",53.3675462,-1.85287454915649
57,201,E12000004,East Midlands,E07000038,North East Derbyshire,75.25,59310,22075,37235,37.22,62.78,"North East Derbyshire, United Kingdom",53.22263255,-1.52392695391223
58,202,E12000004,East Midlands,E07000039,South Derbyshire,76.8,56695,22479,34216,39.65,60.35,"South Derbyshire, United Kingdom",52.8224616,-1.502636119
59,285,E12000004,East Midlands,E07000129,Blaby,76.54,56471,22888,33583,40.53,59.47,"Blaby, United Kingdom",52.5731976,-1.1646388
60,286,E12000004,East Midlands,E07000130,Charnwood,70.46,94172,43500,50672,46.19,53.81,"Charnwood, United Kingdom",52.7392639,-1.13708317804066
61,287,E12000004,East Midlands,E07000131,Harborough,81.44,54878,27028,27850,49.25,50.75,"Harborough, United Kingdom",52.53856885,-0.920044382878428
62,288,E12000004,East Midlands,E07000132,Hinckley and Bosworth,76.8,65470,25969,39501,39.67,60.33,"Hinckley and Bosworth, United Kingdom",52.608409,-1.41719089634814
63,289,E12000004,East Midlands,E07000133,Melton,81.36,30305,12695,17610,41.89,58.11,"Melton, United Kingdom",52.105752,1.3316632
64,290,E12000004,East Midlands,E07000134,North West Leicestershire,77.95,57611,22642,34969,39.3,60.7,"North West Leicestershire, United Kingdom",52.7704201,-1.39650456914716
65,291,E12000004,East Midlands,E07000135,Oadby and Wigston,73.77,31465,14292,17173,45.42,54.58,"Oadby and Wigston, United Kingdom",52.5870666,-1.09978011434768
66,292,E12000004,East Midlands,E07000136,Boston,77.27,30404,7430,22974,24.44,75.56,"Boston, United Kingdom",52.9770408,-0.0239835
67,293,E12000004,East Midlands,E07000137,East Lindsey,74.93,80128,23515,56613,29.35,70.65,"East Lindsey, United Kingdom",53.2680103,0.0127758230434089
68,294,E12000004,East Midlands,E07000138,Lincoln,69.34,43894,18902,24992,43.06,56.94,"Lincoln, United Kingdom",53.2336301,-0.5392171
69,295,E12000004,East Midlands,E07000139,North Kesteven,78.4,67753,25570,42183,37.74,62.26,"North Kesteven, United Kingdom",53.07252915,-0.447353765881797
70,296,E12000004,East Midlands,E07000140,South Holland,75.37,49497,13074,36423,26.41,73.59,"South Holland, United Kingdom",52.8127195,-0.00126274725762607
71,297,E12000004,East Midlands,E07000141,South Kesteven,78.25,82471,33047,49424,40.07,59.93,"South Kesteven, United Kingdom",52.8502665,-0.495192374160971
72,298,E12000004,East Midlands,E07000142,West Lindsey,74.53,54753,20906,33847,38.18,61.82,"West Lindsey, United Kingdom",53.39772845,-0.503528650053121
73,306,E12000004,East Midlands,E07000150,Corby,74.1,32081,11470,20611,35.75,64.25,"Corby, United Kingdom",52.48763,-0.7015429
74,307,E12000004,East Midlands,E07000151,Daventry,81.01,49381,20443,28938,41.4,58.6,"Daventry, United Kingdom",52.2574393,-1.1639597
75,308,E12000004,East Midlands,E07000152,East Northamptonshire,76.99,52574,21680,30894,41.24,58.76,"East Northamptonshire, United Kingdom",52.44852065,-0.50842135042742
76,309,E12000004,East Midlands,E07000153,Kettering,76.43,53907,21030,32877,39.01,60.99,"Kettering, United Kingdom",52.3994233,-0.7280039
77,310,E12000004,East Midlands,E07000154,Northampton,72.68,105259,43805,61454,41.62,58.38,"Northampton, United Kingdom",52.2385239,-0.9024929
78,311,E12000004,East Midlands,E07000155,South Northamptonshire,79.46,56624,25853,30771,45.66,54.34,"South Northamptonshire, United Kingdom",52.11838535,-1.08008137951706
79,312,E12000004,East Midlands,E07000156,Wellingborough,75.46,41141,15462,25679,37.58,62.42,"Wellingborough, United Kingdom",52.2984002,-0.6911343
80,320,E12000004,East Midlands,E07000170,Ashfield,72.83,66899,20179,46720,30.16,69.84,"Ashfield, United Kingdom",53.08977375,-1.25187664615571
81,321,E12000004,East Midlands,E07000171,Bassetlaw,74.82,63967,20575,43392,32.17,67.83,"Bassetlaw, United Kingdom",53.34945205,-0.961660301193982
82,322,E12000004,East Midlands,E07000172,Broxtowe,78.32,65426,29672,35754,45.35,54.65,"Broxtowe, United Kingdom",52.973462,-1.26487204119107
83,323,E12000004,East Midlands,E07000173,Gedling,76.6,67577,30035,37542,44.45,55.55,"Gedling, United Kingdom",53.02605385,-1.1071168188526
84,324,E12000004,East Midlands,E07000174,Mansfield,72.62,56344,16417,39927,29.14,70.86,"Mansfield, United Kingdom",53.1419377,-1.1985847
85,325,E12000004,East Midlands,E07000175,Newark and Sherwood,76.86,67087,26571,40516,39.61,60.39,"Newark and Sherwood, United Kingdom",53.10895395,-0.944301698026307
86,326,E12000004,East Midlands,E07000176,Rushcliffe,81.56,70410,40522,29888,57.55,42.45,"Rushcliffe, United Kingdom",52.9127023,-1.01100055268208
87,1,E12000007,London,E09000001,City of London,73.58,4399,3312,1087,75.29,24.71,"City of London, United Kingdom",51.5156177,-0.0919982
88,2,E12000007,London,E09000002,Barking and Dagenham,63.85,73880,27750,46130,37.56,62.44,"Barking and Dagenham, United Kingdom",51.5541171,0.150504342619943
89,3,E12000007,London,E09000003,Barnet,72.14,161033,100210,60823,62.23,37.77,"Barnet, United Kingdom",51.6487843,-0.1729126
90,4,E12000007,London,E09000004,Bexley,75.28,128489,47603,80886,37.05,62.95,"Bexley, United Kingdom",51.4416793,0.150488
91,5,E12000007,London,E09000005,Brent,65.14,121404,72523,48881,59.74,40.26,"Brent, United Kingdom",51.5363916,-0.2878064
92,6,E12000007,London,E09000006,Bromley,78.87,182432,92398,90034,50.65,49.35,"Bromley, United Kingdom",51.4028046,0.0148142
93,7,E12000007,London,E09000007,Camden,65.52,95133,71295,23838,74.94,25.06,"Camden, United Kingdom",51.5423045,-0.1395603
94,8,E12000007,London,E09000008,Croydon,69.81,171134,92913,78221,54.29,45.71,"Croydon, United Kingdom",51.3713049,-0.1019569
95,9,E12000007,London,E09000009,Ealing,70.08,149041,90024,59017,60.4,39.6,"Ealing, United Kingdom",51.5126553,-0.3051951
96,10,E12000007,London,E09000010,Enfield,69.09,136906,76425,60481,55.82,44.18,"Enfield, United Kingdom",51.6517122,-0.083214
97,11,E12000007,London,E09000011,Greenwich,69.52,117365,65248,52117,55.59,44.41,"Greenwich, United Kingdom",52.0367323,1.168934
98,12,E12000007,London,E09000012,Hackney,65.18,106266,83398,22868,78.48,21.52,"Hackney, United Kingdom",51.5432402,-0.049362
99,13,E12000007,London,E09000013,Hammersmith and Fulham,69.95,80242,56188,24054,70.02,29.98,"Hammersmith and Fulham, United Kingdom",51.4920377,-0.22364
100,14,E12000007,London,E09000014,Haringey,70.64,105846,79991,25855,75.57,24.43,"Haringey, United Kingdom",51.58792985,-0.10541000599099
101,15,E12000007,London,E09000015,Harrow,72.26,117225,64042,53183,54.63,45.37,"Harrow, United Kingdom",51.5967688,-0.33727505543507
102,16,E12000007,London,E09000016,Havering,76.02,139086,42201,96885,30.34,69.66,"Havering, United Kingdom",51.0043613,-2.33747484262951
103,17,E12000007,London,E09000017,Hillingdon,68.99,133022,58040,74982,43.63,56.37,"Hillingdon, United Kingdom",51.5425193,-0.448334847414423
104,18,E12000007,London,E09000018,Hounslow,69.8,115076,58755,56321,51.06,48.94,"Hounslow, United Kingdom",51.4686132,-0.361347
105,19,E12000007,London,E09000019,Islington,70.39,101600,76420,25180,75.22,24.78,"Islington, United Kingdom",51.5384287,-0.099905
106,20,E12000007,London,E09000020,Kensington and Chelsea,65.99,54739,37601,17138,68.69,31.31,"Kensington and Chelsea, United Kingdom",51.4989948,-0.1991228
107,21,E12000007,London,E09000021,Kingston upon Thames,78.4,85270,52533,32737,61.61,38.39,"Kingston upon Thames, United Kingdom",51.4096275,-0.306262
108,22,E12000007,London,E09000022,Lambeth,67.44,141924,111584,30340,78.62,21.38,"Lambeth, United Kingdom",51.5013012,-0.1172869
109,23,E12000007,London,E09000023,Lewisham,63.1,124473,86955,37518,69.86,30.14,"Lewisham, United Kingdom",51.4624325,-0.010133
110,24,E12000007,London,E09000024,Merton,73.49,100100,63003,37097,62.94,37.06,"Merton, United Kingdom",51.41080285,-0.188097630556762
111,25,E12000007,London,E09000025,Newham,59.25,104699,55328,49371,52.84,47.16,"Newham, United Kingdom",51.52999955,0.0293180102938221
112,26,E12000007,London,E09000026,Redbridge,67.63,128233,69213,59020,53.97,46.03,"Redbridge, United Kingdom",51.5762528,0.0454097
113,27,E12000007,London,E09000027,Richmond upon Thames,82.09,108806,75396,33410,69.29,30.71,"Richmond upon Thames, United Kingdom",51.44035365,-0.308151077673228
114,28,E12000007,London,E09000028,Southwark,66.2,129502,94293,35209,72.81,27.19,"Southwark, United Kingdom",51.5029222,-0.1034579
115,29,E12000007,London,E09000029,Sutton,76.01,106560,49319,57241,46.28,53.72,"Sutton, United Kingdom",51.3575114,-0.173640064220496
116,30,E12000007,London,E09000030,Tower Hamlets,64.6,108235,73011,35224,67.46,32.54,"Tower Hamlets, United Kingdom",51.1288633,1.2986686
117,31,E12000007,London,E09000031,Waltham Forest,66.69,108551,64156,44395,59.1,40.9,"Waltham Forest, United Kingdom",51.5752474,-0.0143311738590633
118,32,E12000007,London,E09000032,Wandsworth,71.98,157884,118463,39421,75.03,24.97,"Wandsworth, United Kingdom",51.4570271,-0.1932606
119,33,E12000007,London,E09000033,Westminster,64.99,78196,53928,24268,68.97,31.03,"Westminster, United Kingdom",51.4973206,-0.1371489
120,70,E12000001,North East,E06000001,Hartlepool,65.59,46100,14029,32071,30.43,69.57,"Hartlepool, United Kingdom",54.6957009,-1.200316
121,71,E12000001,North East,E06000002,Middlesbrough,64.89,61358,21181,40177,34.52,65.48,"Middlesbrough, United Kingdom",54.5760419,-1.2344046
122,72,E12000001,North East,E06000003,Redcar and Cleveland,70.26,72714,24586,48128,33.81,66.19,"Redcar and Cleveland, United Kingdom",54.5679056,-1.00549621657609
123,73,E12000001,North East,E06000004,Stockton-on-Tees,71.0,100415,38433,61982,38.27,61.73,"Stockton-on-Tees, United Kingdom",54.564094,-1.3129163
124,74,E12000001,North East,E06000005,Darlington,71.07,55166,24172,30994,43.82,56.18,"Darlington, United Kingdom",54.5352721,-1.55332700062043
125,75,E12000001,North East,E06000047,County Durham,68.69,267398,113521,153877,42.45,57.55,"County Durham, United Kingdom",54.666667,-1.7499999
126,76,E12000001,North East,E06000057,Northumberland,74.35,178721,82022,96699,45.89,54.11,"Northumberland, United Kingdom",55.25,-2.0005589
127,54,E12000001,North East,E08000021,Newcastle upon Tyne,67.67,129003,65405,63598,50.7,49.3,"Newcastle upon Tyne, United Kingdom",54.9770924,-1.6142058
128,55,E12000001,North East,E08000022,North Tyneside,72.3,113462,52873,60589,46.6,53.4,"North Tyneside, United Kingdom",55.02979945,-1.50825589961419
129,56,E12000001,North East,E08000023,South Tyneside,68.27,79079,30014,49065,37.95,62.05,"South Tyneside, United Kingdom",54.96987425,-1.44768044656454
130,57,E12000001,North East,E08000024,Sunderland,64.86,134324,51930,82394,38.66,61.34,"Sunderland, United Kingdom",54.9063791,-1.3750529
131,53,E12000001,North East,E08000037,Gateshead,70.62,102958,44429,58529,43.15,56.85,"Gateshead, United Kingdom",54.9585535,-1.6057002
132,78,E12000002,North West,E06000006,Halton,68.26,65005,27678,37327,42.58,57.42,"Halton, United Kingdom",53.35385255,-2.74281921954739
133,79,E12000002,North West,E06000007,Warrington,73.36,115144,52657,62487,45.73,54.27,"Warrington, United Kingdom",53.40180345,-2.56803697272251
134,81,E12000002,North West,E06000008,Blackburn with Darwen,65.33,65321,28522,36799,43.66,56.34,"Blackburn with Darwen, United Kingdom",53.69917855,-2.4709035833781
135,82,E12000002,North West,E06000009,Blackpool,65.42,66927,21781,45146,32.54,67.46,"Blackpool, United Kingdom",53.8245483,-3.03731989502197
136,77,E12000002,North West,E06000049,Cheshire East,77.36,221125,107962,113163,48.82,51.18,"Cheshire East, United Kingdom",53.1673583,-2.29288147182891
137,80,E12000002,North West,E06000050,Cheshire West and Chester,74.51,193537,95455,98082,49.32,50.68,"Cheshire West and Chester, United Kingdom",53.1638135,-2.7285358636962
138,189,E12000002,North West,E07000026,Allerdale,72.92,54238,22429,31809,41.35,58.65,"Allerdale, United Kingdom",54.70875575,-3.25250742259892
139,190,E12000002,North West,E07000027,Barrow-in-Furness,67.87,36074,14207,21867,39.38,60.62,"Barrow-in-Furness, United Kingdom",54.1113351,-3.2289493
140,191,E12000002,North West,E07000028,Carlisle,74.54,59683,23788,35895,39.86,60.14,"Carlisle, United Kingdom",54.8948478,-2.936231
141,192,E12000002,North West,E07000029,Copeland,70.06,37947,14419,23528,38.0,62.0,"Copeland, United Kingdom",54.3875949,-3.33085198176487
142,193,E12000002,North West,E07000030,Eden,75.82,31718,14807,16911,46.68,53.32,"Eden, United Kingdom",54.6049494,-2.67119634445447
143,194,E12000002,North West,E07000031,South Lakeland,79.78,65331,34531,30800,52.86,47.14,"South Lakeland, United Kingdom",54.27192955,-2.77130300983531
144,273,E12000002,North West,E07000117,Burnley,67.25,43316,14462,28854,33.39,66.61,"Burnley, United Kingdom",53.7907262,-2.2439195
145,274,E12000002,North West,E07000118,Chorley,75.52,63515,27417,36098,43.17,56.83,"Chorley, United Kingdom",53.6531979,-2.6294741
146,275,E12000002,North West,E07000119,Fylde,75.57,46206,19889,26317,43.04,56.96,"Fylde, United Kingdom",53.7929389,-2.89465759789738
147,276,E12000002,North West,E07000120,Hyndburn,64.74,40137,13569,26568,33.81,66.19,"Hyndburn, United Kingdom",53.76075665,-2.38982980584693
148,277,E12000002,North West,E07000121,Lancaster,72.69,73041,35732,37309,48.92,51.08,"Lancaster, United Kingdom",54.0484068,-2.7990344
149,278,E12000002,North West,E07000122,Pendle,70.33,45335,16704,28631,36.85,63.15,"Pendle, United Kingdom",53.8785095,-2.17149734581634
150,279,E12000002,North West,E07000123,Preston,68.72,64745,30227,34518,46.69,53.31,"Preston, United Kingdom",53.7589938,-2.7051617
151,280,E12000002,North West,E07000124,Ribble Valley,79.02,36442,15892,20550,43.61,56.39,"Ribble Valley, United Kingdom",53.90342855,-2.42294585536625
152,281,E12000002,North West,E07000125,Rossendale,72.43,38181,15012,23169,39.32,60.68,"Rossendale, United Kingdom",53.68465565,-2.26139883630279
153,282,E12000002,North West,E07000126,South Ribble,75.38,63724,26406,37318,41.44,58.56,"South Ribble, United Kingdom",53.72715265,-2.7330065458997
154,283,E12000002,North West,E07000127,West Lancashire,74.47,63869,28546,35323,44.69,55.31,"West Lancashire, United Kingdom",53.6109889,-2.85666849682034
155,284,E12000002,North West,E07000128,Wyre,74.61,62979,22816,40163,36.23,63.77,"Wyre, United Kingdom",53.900501,-2.83882422049096
156,34,E12000002,North West,E08000001,Bolton,70.1,138080,57589,80491,41.71,58.29,"Bolton, United Kingdom",53.577694,-2.4288873
157,35,E12000002,North West,E08000002,Bury,71.43,101028,46354,54674,45.88,54.12,"Bury, United Kingdom",52.2460367,0.7125173
158,36,E12000002,North West,E08000003,Manchester,59.77,201814,121823,79991,60.36,39.64,"Manchester, United Kingdom",53.4791301,-2.2441008
159,37,E12000002,North West,E08000004,Oldham,68.0,107403,42034,65369,39.14,60.86,"Oldham, United Kingdom",53.5415797,-2.114783
160,38,E12000002,North West,E08000005,Rochdale,65.97,103231,41217,62014,39.93,60.07,"Rochdale, United Kingdom",53.6153659,-2.155756
161,39,E12000002,North West,E08000006,Salford,63.3,109815,47430,62385,43.19,56.81,"Salford, United Kingdom",53.4877463,-2.289192
162,40,E12000002,North West,E08000007,Stockport,73.97,163489,85559,77930,52.33,47.67,"Stockport, United Kingdom",53.407901,-2.1602429
163,41,E12000002,North West,E08000008,Tameside,66.06,110947,43118,67829,38.86,61.14,"Tameside, United Kingdom",53.47863995,-2.07703315665055
164,42,E12000002,North West,E08000009,Trafford,75.86,125311,72293,53018,57.69,42.31,"Trafford, United Kingdom",53.4189014,-2.35946945066462
165,43,E12000002,North West,E08000010,Wigan,69.23,163273,58942,104331,36.1,63.9,"Wigan, United Kingdom",53.5457188,-2.6264623
166,44,E12000002,North West,E08000011,Knowsley,63.54,70903,34345,36558,48.44,51.56,"Knowsley, United Kingdom",53.4552358,-2.8546851
167,45,E12000002,North West,E08000012,Liverpool,64.08,203554,118453,85101,58.19,41.81,"Liverpool, United Kingdom",53.4054719,-2.9805391
168,46,E12000002,North West,E08000013,St. Helens,68.86,93679,39322,54357,41.98,58.02,"St. Helens, United Kingdom",53.4535471,-2.734323
169,47,E12000002,North West,E08000014,Sefton,71.73,147878,76702,71176,51.87,48.13,"Sefton, United Kingdom",53.5702361,-3.06550024448832
170,48,E12000002,North West,E08000015,Wirral,70.96,172000,88931,83069,51.7,48.3,"Wirral, United Kingdom",53.3409714,-3.0500915
171,381,N92000002,Northern Ireland,N92000002,Northern Ireland,62.69,790149,440707,349442,55.78,44.22,"Northern Ireland, United Kingdom",54.6294982,-6.7654415
172,153,S92000003,Scotland,S12000005,Clackmannanshire,67.23,25427,14691,10736,57.78,42.22,"Clackmannanshire, United Kingdom",56.166395,-3.7513967
173,155,S92000003,Scotland,S12000006,Dumfries and Galloway,71.41,82667,43864,38803,53.06,46.94,"Dumfries and Galloway, United Kingdom",55.083333,-3.8333329
174,157,S92000003,Scotland,S12000008,East Ayrshire,62.91,57833,33891,23942,58.6,41.4,"East Ayrshire, United Kingdom",55.5,-4.2499999
175,159,S92000003,Scotland,S12000010,East Lothian,71.73,55764,36026,19738,64.6,35.4,"East Lothian, United Kingdom",55.916667,-2.7499999
176,160,S92000003,Scotland,S12000011,East Renfrewshire,76.13,52941,39345,13596,74.32,25.68,"East Renfrewshire, United Kingdom",55.75,-4.3333329
177,179,S92000003,Scotland,S12000013,Eilean Siar,70.18,14903,8232,6671,55.24,44.76,"Eilean Siar, United Kingdom",57.666667,-7.1666669
178,162,S92000003,Scotland,S12000014,Falkirk,67.55,79258,44987,34271,56.76,43.24,"Falkirk, United Kingdom",55.9994464,-3.7851832
179,163,S92000003,Scotland,S12000015,Fife,66.78,182220,106754,75466,58.59,41.41,"Fife, United Kingdom",56.3333331,-3.0
180,165,S92000003,Scotland,S12000017,Highland,71.61,125657,70308,55349,55.95,44.05,"Highland, United Kingdom",57.5066357,-5.0038366
181,166,S92000003,Scotland,S12000018,Inverclyde,66.05,38698,24688,14010,63.8,36.2,"Inverclyde, United Kingdom",55.9,-4.7499999
182,167,S92000003,Scotland,S12000019,Midlothian,68.15,45468,28217,17251,62.06,37.94,"Midlothian, United Kingdom",55.833333,-3.0833329
183,168,S92000003,Scotland,S12000020,Moray,67.45,48106,24114,23992,50.13,49.87,"Moray, United Kingdom",57.416667,-3.2499999
184,169,S92000003,Scotland,S12000021,North Ayrshire,64.59,67504,38394,29110,56.88,43.12,"North Ayrshire, United Kingdom",55.72785115,-4.72722740028438
185,171,S92000003,Scotland,S12000023,Orkney Islands,68.45,11382,7189,4193,63.16,36.84,"Orkney Islands, United Kingdom",59.0134725,-3.23109223927865
186,172,S92000003,Scotland,S12000024,Perth and Kinross,73.75,81255,49641,31614,61.09,38.91,"Perth and Kinross, United Kingdom",56.5,-3.7499999
187,152,S92000003,Scotland,S12000026,Scottish Borders,73.44,64914,37952,26962,58.47,41.53,"Scottish Borders, United Kingdom",55.583333,-2.8333329
188,174,S92000003,Scotland,S12000027,Shetland Islands,70.39,12222,6907,5315,56.51,43.49,"Shetland Islands, United Kingdom",60.333333,-1.3333329
189,175,S92000003,Scotland,S12000028,South Ayrshire,69.84,61506,36265,25241,58.96,41.04,"South Ayrshire, United Kingdom",55.299818,-4.64598826701613
190,176,S92000003,Scotland,S12000029,South Lanarkshire,65.35,162592,102568,60024,63.08,36.92,"South Lanarkshire, United Kingdom",55.583333,-3.8333329
191,177,S92000003,Scotland,S12000030,Stirling,74.03,48899,33112,15787,67.72,32.28,"Stirling, United Kingdom",56.1181242,-3.9360011
192,148,S92000003,Scotland,S12000033,Aberdeen ,67.94,104714,63985,40729,61.1,38.9,"Aberdeen , United Kingdom",57.1452452,-2.0913744
193,149,S92000003,Scotland,S12000034,Aberdeenshire,70.63,138961,76445,62516,55.01,44.99,"Aberdeenshire, United Kingdom",57.166667,-2.6666669
194,151,S92000003,Scotland,S12000035,Argyll and Bute,73.13,48696,29494,19202,60.57,39.43,"Argyll and Bute, United Kingdom",56.4603494,-5.8618418478791
195,161,S92000003,Scotland,S12000036,Edinburgh,72.96,252294,187796,64498,74.44,25.56,"Edinburgh, United Kingdom",55.9495628,-3.1914971
196,173,S92000003,Scotland,S12000038,Renfrewshire,69.29,88129,57119,31010,64.81,35.19,"Renfrewshire, United Kingdom",55.833333,-4.4999999
197,154,S92000003,Scotland,S12000039,West Dunbartonshire,63.98,43220,26794,16426,61.99,38.01,"West Dunbartonshire, United Kingdom",55.966667,-4.5333329
198,178,S92000003,Scotland,S12000040,West Lothian,67.64,88508,51560,36948,58.25,41.75,"West Lothian, United Kingdom",55.916667,-3.4999999
199,150,S92000003,Scotland,S12000041,Angus,68.03,59258,32747,26511,55.26,44.74,"Angus, United Kingdom",56.666667,-2.9166669
200,156,S92000003,Scotland,S12000042,Dundee ,62.92,66385,39688,26697,59.78,40.22,"Dundee , United Kingdom",56.4593653,-2.9735212
201,170,S92000003,Scotland,S12000044,North Lanarkshire,60.91,154949,95549,59400,61.66,38.34,"North Lanarkshire, United Kingdom",55.88319035,-3.94628209029502
202,158,S92000003,Scotland,S12000045,East Dunbartonshire,75.17,62374,44534,17840,71.4,28.6,"East Dunbartonshire, United Kingdom",55.933333,-4.1999999
203,164,S92000003,Scotland,S12000046,Glasgow ,56.25,252809,168335,84474,66.59,33.41,"Glasgow , United Kingdom",55.856656,-4.2435816
204,114,E12000008,South East,E06000035,Medway,72.18,138886,49889,88997,35.92,64.08,"Medway, United Kingdom",51.4157386,0.568730851240833
205,115,E12000008,South East,E06000036,Bracknell Forest,76.11,64890,29888,35002,46.06,53.94,"Bracknell Forest, United Kingdom",51.4002688,-0.741788701141304
206,116,E12000008,South East,E06000037,West Berkshire,79.95,93277,48300,44977,51.78,48.22,"West Berkshire, United Kingdom",51.44631345,-1.27588185547029
207,117,E12000008,South East,E06000038,Reading,72.53,74767,43385,31382,58.03,41.97,"Reading, United Kingdom",51.456659,-0.9696511
208,118,E12000008,South East,E06000039,Slough,62.13,54542,24911,29631,45.67,54.33,"Slough, United Kingdom",51.5111014,-0.5940681
209,119,E12000008,South East,E06000040,Windsor and Maidenhead,79.73,81792,44086,37706,53.9,46.1,"Windsor and Maidenhead, United Kingdom",51.4803412,-0.676950420428335
210,120,E12000008,South East,E06000041,Wokingham,80.03,97501,55272,42229,56.69,43.31,"Wokingham, United Kingdom",51.4120318,-0.8324036
211,121,E12000008,South East,E06000042,Milton Keynes,73.66,130456,63393,67063,48.59,51.41,"Milton Keynes, United Kingdom",52.0429797,-0.7589606
212,122,E12000008,South East,E06000043,Brighton and Hove,74.05,146675,100648,46027,68.62,31.38,"Brighton and Hove, United Kingdom",50.84522125,-0.149758405411392
213,123,E12000008,South East,E06000044,Portsmouth,70.3,98720,41384,57336,41.92,58.08,"Portsmouth, United Kingdom",50.8036831,-1.0756139
214,124,E12000008,South East,E06000045,Southampton,68.14,107665,49738,57927,46.2,53.8,"Southampton, United Kingdom",50.9025349,-1.4041889
215,125,E12000008,South East,E06000046,Isle of Wight,72.31,79380,30207,49173,38.05,61.95,"Isle of Wight, United Kingdom",50.6710482,-1.33271101331995
216,180,E12000008,South East,E07000004,Aylesbury Vale,78.46,106833,52877,53956,49.5,50.5,"Aylesbury Vale, United Kingdom",51.89995475,-0.878270900418096
217,181,E12000008,South East,E07000005,Chiltern,83.57,58604,32241,26363,55.02,44.98,"Chiltern, United Kingdom",51.67893035,-0.629520484933302
218,182,E12000008,South East,E07000006,South Bucks,78.08,40724,20077,20647,49.3,50.7,"South Bucks, United Kingdom",51.56017085,-0.585103417518626
219,183,E12000008,South East,E07000007,Wycombe,75.74,94790,49261,45529,51.97,48.03,"Wycombe, United Kingdom",51.66356185,-0.818083580966309
220,217,E12000008,South East,E07000061,Eastbourne,74.73,53545,22845,30700,42.67,57.33,"Eastbourne, United Kingdom",50.7733195,0.259146559219269
221,218,E12000008,South East,E07000062,Hastings,71.64,44350,20011,24339,45.12,54.88,"Hastings, United Kingdom",50.8553888,0.5824703
222,219,E12000008,South East,E07000063,Lewes,77.89,59482,30974,28508,52.07,47.93,"Lewes, United Kingdom",50.8741265,0.0121129
223,220,E12000008,South East,E07000064,Rother,79.33,57669,23916,33753,41.47,58.53,"Rother, United Kingdom",50.9514569,0.574020274132099
224,221,E12000008,South East,E07000065,Wealden,80.03,96892,44084,52808,45.5,54.5,"Wealden, United Kingdom",50.94216925,0.197162488154183
225,240,E12000008,South East,E07000084,Basingstoke and Deane,78.02,100328,48257,52071,48.1,51.9,"Basingstoke and Deane, United Kingdom",51.2587797,-1.22110721814901
226,241,E12000008,South East,E07000085,East Hampshire,81.65,73922,37346,36576,50.52,49.48,"East Hampshire, United Kingdom",51.04012765,-0.965636691377388
227,242,E12000008,South East,E07000086,Eastleigh,78.28,76074,36172,39902,47.55,52.45,"Eastleigh, United Kingdom",50.9202217,-1.29927626848828
228,243,E12000008,South East,E07000087,Fareham,79.59,71735,32210,39525,44.9,55.1,"Fareham, United Kingdom",50.85727295,-1.2132977197448
229,244,E12000008,South East,E07000088,Gosport,73.51,46127,16671,29456,36.14,63.86,"Gosport, United Kingdom",50.7952074,-1.1210852
230,245,E12000008,South East,E07000089,Hart,82.67,57795,30282,27513,52.4,47.6,"Hart, United Kingdom",51.2761671,-0.892798880562381
231,246,E12000008,South East,E07000090,Havant,74.1,70629,26582,44047,37.64,62.36,"Havant, United Kingdom",50.8334197,-0.982658843316543
232,247,E12000008,South East,E07000091,New Forest,79.25,111740,47199,64541,42.24,57.76,"New Forest, United Kingdom",50.85562565,-1.59566137991716
233,248,E12000008,South East,E07000092,Rushmoor,74.18,48780,20384,28396,41.79,58.21,"Rushmoor, United Kingdom",51.27523885,-0.769391628835403
234,249,E12000008,South East,E07000093,Test Valley,79.65,75261,36170,39091,48.06,51.94,"Test Valley, United Kingdom",51.13379045,-1.51828632658409
235,250,E12000008,South East,E07000094,Winchester,81.26,72764,42878,29886,58.93,41.07,"Winchester, United Kingdom",51.0612766,-1.3131691
236,261,E12000008,South East,E07000105,Ashford,77.14,69786,28314,41472,40.57,59.43,"Ashford, United Kingdom",51.4330238,-0.4619836
237,262,E12000008,South East,E07000106,Canterbury,75.05,82048,40169,41879,48.96,51.04,"Canterbury, United Kingdom",51.2800275,1.0802533
238,263,E12000008,South East,E07000107,Dartford,75.57,55855,19985,35870,35.78,64.22,"Dartford, United Kingdom",51.4474858,0.2192446
239,264,E12000008,South East,E07000108,Dover,76.53,65016,24606,40410,37.85,62.15,"Dover, United Kingdom",51.1263985,1.30083991723459
240,265,E12000008,South East,E07000109,Gravesham,74.93,54519,18876,35643,34.62,65.38,"Gravesham, United Kingdom",51.39723695,0.396172587146342
241,266,E12000008,South East,E07000110,Maidstone,76.02,89127,36762,52365,41.25,58.75,"Maidstone, United Kingdom",51.2748258,0.5231646
242,267,E12000008,South East,E07000111,Sevenoaks,80.68,70349,32091,38258,45.62,54.38,"Sevenoaks, United Kingdom",51.2719654,0.1914386
243,268,E12000008,South East,E07000112,Shepway,75.0,60613,22884,37729,37.75,62.25,"Shepway, United Kingdom",51.05774845,1.00607206984296
244,269,E12000008,South East,E07000113,Swale,74.27,75869,28481,47388,37.54,62.46,"Swale, United Kingdom",51.3367451,0.801369798606056
245,270,E12000008,South East,E07000114,Thanet,72.8,72102,26065,46037,36.15,63.85,"Thanet, United Kingdom",51.35330455,1.33198659735133
246,271,E12000008,South East,E07000115,Tonbridge and Malling,79.62,74021,32792,41229,44.3,55.7,"Tonbridge and Malling, United Kingdom",51.2717306,0.356659800749212
247,272,E12000008,South East,E07000116,Tunbridge Wells,79.14,64996,35676,29320,54.89,45.11,"Tunbridge Wells, United Kingdom",51.1371483,0.2673446
248,327,E12000008,South East,E07000177,Cherwell,75.6,81836,40668,41168,49.69,50.31,"Cherwell, United Kingdom",51.9747169,-1.22626618999804
249,328,E12000008,South East,E07000178,Oxford,72.34,70337,49424,20913,70.27,29.73,"Oxford, United Kingdom",51.7520131,-1.2578498
250,329,E12000008,South East,E07000179,South Oxfordshire,80.75,84110,46245,37865,54.98,45.02,"South Oxfordshire, United Kingdom",51.6366088,-1.08047251859197
251,330,E12000008,South East,E07000180,Vale of White Horse,81.18,76654,43462,33192,56.7,43.3,"Vale of White Horse, United Kingdom",51.65420825,-1.48565676155718
252,331,E12000008,South East,E07000181,West Oxfordshire,79.72,65671,35236,30435,53.66,46.34,"West Oxfordshire, United Kingdom",51.84036295,-1.51212734394948
253,352,E12000008,South East,E07000207,Elmbridge,78.14,77003,45841,31162,59.53,40.47,"Elmbridge, United Kingdom",51.35341905,-0.399308371920529
254,353,E12000008,South East,E07000208,Epsom and Ewell,80.42,45303,23596,21707,52.08,47.92,"Epsom and Ewell, United Kingdom",51.3363097,-0.267381604280449
255,354,E12000008,South East,E07000209,Guildford,76.96,78613,44155,34458,56.17,43.83,"Guildford, United Kingdom",51.237195,-0.5811778
256,355,E12000008,South East,E07000210,Mole Valley,82.17,54796,29088,25708,53.08,46.92,"Mole Valley, United Kingdom",51.2201281,-0.334728863732138
257,356,E12000008,South East,E07000211,Reigate and Banstead,78.28,81161,40181,40980,49.51,50.49,"Reigate and Banstead, United Kingdom",51.25164045,-0.186468115130761
258,357,E12000008,South East,E07000212,Runnymede,76.07,44294,20259,24035,45.74,54.26,"Runnymede, United Kingdom",51.3948374,-0.55196084647528
259,358,E12000008,South East,E07000213,Spelthorne,77.93,56609,22474,34135,39.7,60.3,"Spelthorne, United Kingdom",51.4250347,-0.459285963370865
260,359,E12000008,South East,E07000214,Surrey Heath,79.81,52305,25638,26667,49.02,50.98,"Surrey Heath, United Kingdom",51.33588905,-0.691653319464288
261,360,E12000008,South East,E07000215,Tandridge,80.36,51420,24251,27169,47.16,52.84,"Tandridge, United Kingdom",51.2393372,-0.0344317
262,361,E12000008,South East,E07000216,Waverley,82.35,75942,44341,31601,58.39,41.61,"Waverley, United Kingdom",55.9522048,-3.18866055
263,362,E12000008,South East,E07000217,Woking,77.49,55221,31007,24214,56.15,43.85,"Woking, United Kingdom",51.3201891,-0.5564725
264,368,E12000008,South East,E07000223,Adur,76.4,37229,16914,20315,45.43,54.57,"Adur, United Kingdom",50.84522125,-0.293929933164621
265,369,E12000008,South East,E07000224,Arun,77.86,91129,34193,56936,37.52,62.48,"Arun, United Kingdom",50.8309378,-0.566685363989114
266,370,E12000008,South East,E07000225,Chichester,77.91,71337,35011,36326,49.08,50.92,"Chichester, United Kingdom",50.84467705,-0.783114331619324
267,371,E12000008,South East,E07000226,Crawley,73.24,53835,22388,31447,41.59,58.41,"Crawley, United Kingdom",51.1103444,-0.1801093
268,372,E12000008,South East,E07000227,Horsham,81.65,85088,43785,41303,51.46,48.54,"Horsham, United Kingdom",51.0659819,-0.3189487
269,373,E12000008,South East,E07000228,Mid Sussex,80.79,87528,46471,41057,53.09,46.91,"Mid Sussex, United Kingdom",51.0053311,-0.127314322717766
270,374,E12000008,South East,E07000229,Worthing,75.46,61366,28851,32515,47.01,52.99,"Worthing, United Kingdom",50.8116902,-0.3703947
271,96,E12000009,South West,E06000022,Bath and North East Somerset,77.13,105230,60878,44352,57.85,42.15,"Bath and North East Somerset, United Kingdom",51.35632375,-2.48666132450209
272,97,E12000009,South West,E06000023,Bristol,73.17,228445,141027,87418,61.73,38.27,"Bristol, United Kingdom",51.453493,-2.5973936
273,98,E12000009,South West,E06000024,North Somerset,77.47,124548,59572,64976,47.83,52.17,"North Somerset, United Kingdom",51.3966315,-2.76913291847919
274,99,E12000009,South West,E06000025,South Gloucestershire,76.24,158333,74928,83405,47.32,52.68,"South Gloucestershire, United Kingdom",51.54919165,-2.48095271734538
275,102,E12000009,South West,E06000026,Plymouth,71.41,133455,53458,79997,40.06,59.94,"Plymouth, United Kingdom",50.3712659,-4.1425657
276,103,E12000009,South West,E06000027,Torbay,73.69,75824,27935,47889,36.84,63.16,"Torbay, United Kingdom",50.446247,-3.53949971419379
277,104,E12000009,South West,E06000028,Bournemouth,69.3,91926,41473,50453,45.12,54.88,"Bournemouth, United Kingdom",50.74467035,-1.85798080318094
278,105,E12000009,South West,E06000029,Poole,75.38,85448,35741,49707,41.83,58.17,"Poole, United Kingdom",50.74018055,-1.95377373524348
279,106,E12000009,South West,E06000030,Swindon,75.9,112965,51220,61745,45.34,54.66,"Swindon, United Kingdom",51.5613683,-1.7856852
280,100,E12000009,South West,E06000052,Cornwall,77.05,323205,140540,182665,43.48,56.52,"Cornwall, United Kingdom",50.416667,-4.7499999
281,101,E12000009,South West,E06000053,Isles of Scilly,79.16,1424,803,621,56.39,43.61,"Isles of Scilly, United Kingdom",49.9189993,-6.3140033
282,107,E12000009,South West,E06000054,Wiltshire,78.87,288895,137258,151637,47.51,52.49,"Wiltshire, United Kingdom",51.25,-1.9166669
283,203,E12000009,South West,E07000040,East Devon,78.94,88783,40743,48040,45.89,54.11,"East Devon, United Kingdom",50.7568771,-3.22156418911353
284,204,E12000009,South West,E07000041,Exeter,73.91,63803,35270,28533,55.28,44.72,"Exeter, United Kingdom",50.7256471,-3.526661
285,205,E12000009,South West,E07000042,Mid Devon,79.38,48006,22400,25606,46.66,53.34,"Mid Devon, United Kingdom",50.86839225,-3.59969988985401
286,206,E12000009,South West,E07000043,North Devon,76.85,58031,24931,33100,42.96,57.04,"North Devon, United Kingdom",51.061456,-3.92392319756694
287,207,E12000009,South West,E07000044,South Hams,80.27,55450,29308,26142,52.85,47.15,"South Hams, United Kingdom",50.3720603,-3.81624975276916
288,208,E12000009,South West,E07000045,Teignbridge,79.4,82312,37949,44363,46.1,53.9,"Teignbridge, United Kingdom",50.61256075,-3.65593215
289,209,E12000009,South West,E07000046,Torridge,78.41,41429,16229,25200,39.17,60.83,"Torridge, United Kingdom",50.86260145,-4.26120546324792
290,210,E12000009,South West,E07000047,West Devon,81.26,35595,16658,18937,46.8,53.2,"West Devon, United Kingdom",50.65199745,-4.0743107539441
291,211,E12000009,South West,E07000048,Christchurch,79.3,31050,12782,18268,41.17,58.83,"Christchurch, United Kingdom",50.7344198,-1.7651199
292,212,E12000009,South West,E07000049,East Dorset,81.33,58488,24786,33702,42.38,57.62,"East Dorset, United Kingdom",50.86741225,-1.94796593955817
293,213,E12000009,South West,E07000050,North Dorset,79.71,42201,18399,23802,43.6,56.4,"North Dorset, United Kingdom",50.91989035,-2.23114890440022
294,214,E12000009,South West,E07000051,Purbeck,78.91,28720,11754,16966,40.93,59.07,"Purbeck, United Kingdom",50.68477665,-2.12560113891846
295,215,E12000009,South West,E07000052,West Dorset,79.49,65191,31924,33267,48.97,51.03,"West Dorset, United Kingdom",50.79511975,-2.59936636463172
296,216,E12000009,South West,E07000053,Weymouth and Portland,75.87,38255,14903,23352,38.96,61.04,"Weymouth and Portland, United Kingdom",50.5956611,-2.47198245650614
297,234,E12000009,South West,E07000078,Cheltenham,75.88,66013,37081,28932,56.17,43.83,"Cheltenham, United Kingdom",51.8995685,-2.0711558
298,235,E12000009,South West,E07000079,Cotswold,79.8,54821,28015,26806,51.1,48.9,"Cotswold, United Kingdom",51.84516805,-1.89133070014125
299,236,E12000009,South West,E07000080,Forest of Dean,77.47,51643,21392,30251,41.42,58.58,"Forest of Dean, United Kingdom",51.8090013,-2.55598597633125
300,237,E12000009,South West,E07000081,Gloucester,72.06,64577,26801,37776,41.5,58.5,"Gloucester, United Kingdom",51.8653705,-2.2458191
301,238,E12000009,South West,E07000082,Stroud,80.03,74064,40446,33618,54.61,45.39,"Stroud, United Kingdom",51.745424,-2.2198604
302,239,E12000009,South West,E07000083,Tewkesbury,79.15,53652,25084,28568,46.75,53.25,"Tewkesbury, United Kingdom",51.9937857,-2.1549573
303,332,E12000009,South West,E07000187,Mendip,77.01,65455,33427,32028,51.07,48.93,"Mendip, United Kingdom",51.1943905,-2.5419220103264
304,333,E12000009,South West,E07000188,Sedgemoor,76.3,68414,26545,41869,38.8,61.2,"Sedgemoor, United Kingdom",51.1868339,-2.9684211260961
305,334,E12000009,South West,E07000189,South Somerset,78.69,99467,42527,56940,42.75,57.25,"South Somerset, United Kingdom",50.9843053,-2.77615607980081
306,335,E12000009,South West,E07000190,Taunton Deane,78.16,65733,30944,34789,47.08,52.92,"Taunton Deane, United Kingdom",51.00478595,-3.16460853808966
307,336,E12000009,South West,E07000191,West Somerset,79.17,21734,8566,13168,39.41,60.59,"West Somerset, United Kingdom",51.1187353,-3.50357478854033
308,382,E12000009,South West,GI,Gibraltar,83.64,20145,19322,823,95.91,4.09,"Gibraltar, United Kingdom",51.791921,-0.90223
309,126,W92000004,Wales,W06000001,Isle of Anglesey,73.82,37951,18618,19333,49.06,50.94,"Isle of Anglesey, United Kingdom",53.27813545,-4.34789762828767
310,127,W92000004,Wales,W06000002,Gwynedd,72.42,61182,35517,25665,58.05,41.95,"Gwynedd, United Kingdom",52.90787985,-3.83342359061536
311,128,W92000004,Wales,W06000003,Conwy,71.75,65504,30147,35357,46.02,53.98,"Conwy, United Kingdom",53.14642505,-3.75913454221729
312,129,W92000004,Wales,W06000004,Denbighshire,69.14,52072,23955,28117,46.0,54.0,"Denbighshire, United Kingdom",53.10926355,-3.36655568537762
313,130,W92000004,Wales,W06000005,Flintshire,74.9,86797,37867,48930,43.63,56.37,"Flintshire, United Kingdom",53.2173046,-3.14131468505036
314,131,W92000004,Wales,W06000006,Wrexham,71.56,70366,28822,41544,40.96,59.04,"Wrexham, United Kingdom",53.0465068,-2.9938136
315,133,W92000004,Wales,W06000008,Ceredigion,74.48,39742,21711,18031,54.63,45.37,"Ceredigion, United Kingdom",52.2945938,-3.95247240500557
316,134,W92000004,Wales,W06000009,Pembrokeshire,74.39,68522,29367,39155,42.86,57.14,"Pembrokeshire, United Kingdom",51.8339209,-4.9166669
317,135,W92000004,Wales,W06000010,Carmarthenshire,74.07,103035,47654,55381,46.25,53.75,"Carmarthenshire, United Kingdom",51.8935366,-4.21648691605552
318,136,W92000004,Wales,W06000011,Swansea,69.6,120243,58307,61936,48.49,51.51,"Swansea, United Kingdom",51.6211442,-3.946775
319,137,W92000004,Wales,W06000012,Neath Port Talbot,71.57,75652,32651,43001,43.16,56.84,"Neath Port Talbot, United Kingdom",51.66852045,-3.72159828412827
320,138,W92000004,Wales,W06000013,Bridgend,71.18,74345,33723,40622,45.36,54.64,"Bridgend, United Kingdom",51.5571801,-3.564644856331
321,139,W92000004,Wales,W06000014,Vale of Glamorgan,76.15,72309,36681,35628,50.73,49.27,"Vale of Glamorgan, United Kingdom",51.4468699,-3.39452507987608
322,147,W92000004,Wales,W06000015,Cardiff,69.66,169604,101788,67816,60.02,39.98,"Cardiff, United Kingdom",51.4816546,-3.1791933
323,140,W92000004,Wales,W06000016,Rhondda Cynon Taf,67.47,116563,53973,62590,46.3,53.7,"Rhondda Cynon Taf, United Kingdom",51.66471265,-3.45751737636218
324,142,W92000004,Wales,W06000018,Caerphilly,70.74,92473,39178,53295,42.37,57.63,"Caerphilly, United Kingdom",51.5745432,-3.2208486
325,143,W92000004,Wales,W06000019,Blaenau Gwent,68.08,34802,13215,21587,37.97,62.03,"Blaenau Gwent, United Kingdom",51.75339305,-3.18490886695136
326,144,W92000004,Wales,W06000020,Torfaen,69.86,48144,19363,28781,40.22,59.78,"Torfaen, United Kingdom",51.70148,-3.05206730593193
327,145,W92000004,Wales,W06000021,Monmouthshire,77.74,55630,28061,27569,50.44,49.56,"Monmouthshire, United Kingdom",51.7501058,-2.833333
328,146,W92000004,Wales,W06000022,Newport,70.21,73649,32413,41236,44.01,55.99,"Newport, United Kingdom",51.5882332,-2.9974966
329,132,W92000004,Wales,W06000023,Powys,77.0,79469,36762,42707,46.26,53.74,"Powys, United Kingdom",52.32671305,-3.35630695087739
330,141,W92000004,Wales,W06000024,Merthyr Tydfil,67.39,28865,12574,16291,43.56,56.44,"Merthyr Tydfil, United Kingdom",51.7490624,-3.3786182
331,92,E12000005,West Midlands,E06000019,"Herefordshire, County of",78.36,108270,44148,64122,40.78,59.22,"Herefordshire, County of, United Kingdom",,
332,93,E12000005,West Midlands,E06000020,Telford and Wrekin,72.15,89603,32954,56649,36.78,63.22,"Telford and Wrekin, United Kingdom",52.72144515,-2.50086229150908
333,95,E12000005,West Midlands,E06000021,Stoke-on-Trent,65.74,117590,36027,81563,30.64,69.36,"Stoke-on-Trent, United Kingdom",53.0162014,-2.1812606
334,94,E12000005,West Midlands,E06000051,Shropshire,77.42,183153,78987,104166,43.13,56.87,"Shropshire, United Kingdom",52.65233935,-2.64356397027027
335,337,E12000005,West Midlands,E07000192,Cannock Chase,71.47,53578,16684,36894,31.14,68.86,"Cannock Chase, United Kingdom",52.7069197,-1.97843465467299
336,338,E12000005,West Midlands,E07000193,East Staffordshire,74.39,62116,22850,39266,36.79,63.21,"East Staffordshire, United Kingdom",52.8879159,-1.90304447293364
337,339,E12000005,West Midlands,E07000194,Lichfield,78.78,63278,26064,37214,41.19,58.81,"Lichfield, United Kingdom",52.6843696,-1.8275285
338,340,E12000005,West Midlands,E07000195,Newcastle-under-Lyme,74.3,68934,25477,43457,36.96,63.04,"Newcastle-under-Lyme, United Kingdom",53.0088256,-2.2332497
339,341,E12000005,West Midlands,E07000196,South Staffordshire,77.81,66692,23444,43248,35.15,64.85,"South Staffordshire, United Kingdom",52.6047717,-2.25916473854173
340,342,E12000005,West Midlands,E07000197,Stafford,77.83,77484,34098,43386,44.01,55.99,"Stafford, United Kingdom",52.8063157,-2.1163817
341,343,E12000005,West Midlands,E07000198,Staffordshire Moorlands,75.36,59760,21076,38684,35.27,64.73,"Staffordshire Moorlands, United Kingdom",53.07155675,-1.97420061184559
342,344,E12000005,West Midlands,E07000199,Tamworth,74.18,42129,13705,28424,32.53,67.47,"Tamworth, United Kingdom",52.6345819,-1.6948437
343,363,E12000005,West Midlands,E07000218,North Warwickshire,76.27,37954,12569,25385,33.12,66.88,"North Warwickshire, United Kingdom",52.56133955,-1.62960108325123
344,364,E12000005,West Midlands,E07000219,Nuneaton and Bedworth,74.35,69831,23736,46095,33.99,66.01,"Nuneaton and Bedworth, United Kingdom",52.5010313,-1.46773909445167
345,365,E12000005,West Midlands,E07000220,Rugby,79.03,58549,25350,33199,43.3,56.7,"Rugby, United Kingdom",52.3726682,-1.2620037
346,366,E12000005,West Midlands,E07000221,Stratford-on-Avon,80.82,79158,38341,40817,48.44,51.56,"Stratford-on-Avon, United Kingdom",52.161709,-1.63580763623198
347,367,E12000005,West Midlands,E07000222,Warwick,79.22,81618,47976,33642,58.78,41.22,"Warwick, United Kingdom",52.2850815,-1.5785411
348,375,E12000005,West Midlands,E07000234,Bromsgrove,79.35,58815,26252,32563,44.63,55.37,"Bromsgrove, United Kingdom",52.3390519,-2.05320169924462
349,376,E12000005,West Midlands,E07000235,Malvern Hills,80.61,48497,23203,25294,47.84,52.16,"Malvern Hills, United Kingdom",52.16753425,-2.33114243815115
350,377,E12000005,West Midlands,E07000236,Redditch,75.22,45882,17303,28579,37.71,62.29,"Redditch, United Kingdom",52.3057655,-1.9417443
351,378,E12000005,West Midlands,E07000237,Worcester,73.85,54239,25125,29114,46.32,53.68,"Worcester, United Kingdom",52.1911849,-2.2206584
352,379,E12000005,West Midlands,E07000238,Wychavon,80.88,76389,32188,44201,42.14,57.86,"Wychavon, United Kingdom",52.1803417,-2.06231357268124
353,380,E12000005,West Midlands,E07000239,Wyre Forest,74.05,57632,21240,36392,36.85,63.15,"Wyre Forest, United Kingdom",52.38505915,-2.23479651415052
354,58,E12000005,West Midlands,E08000025,Birmingham,63.81,450702,223451,227251,49.58,50.42,"Birmingham, United Kingdom",52.4776875,-1.8948515
355,59,E12000005,West Midlands,E08000026,Coventry,69.21,153064,67967,85097,44.4,55.6,"Coventry, United Kingdom",52.4081812,-1.5104769
356,60,E12000005,West Midlands,E08000027,Dudley,71.71,175226,56780,118446,32.4,67.6,"Dudley, United Kingdom",52.5114727,-2.0820102
357,61,E12000005,West Midlands,E08000028,Sandwell,66.58,147254,49004,98250,33.28,66.72,"Sandwell, United Kingdom",52.514943,-2.01350083843629
358,62,E12000005,West Midlands,E08000029,Solihull,76.06,121950,53466,68484,43.84,56.16,"Solihull, United Kingdom",52.4130189,-1.7768934
359,63,E12000005,West Midlands,E08000030,Walsall,69.68,135579,43572,92007,32.14,67.86,"Walsall, United Kingdom",52.60524495,-1.97042166214852
360,64,E12000005,West Midlands,E08000031,Wolverhampton,67.54,117936,44138,73798,37.43,62.57,"Wolverhampton, United Kingdom",52.5847651,-2.1275669
361,83,E12000003,Yorkshire and The Humber,E06000010,Kingston upon Hull,62.94,113355,36709,76646,32.38,67.62,"Kingston upon Hull, United Kingdom",53.7435722,-0.3394757
362,84,E12000003,Yorkshire and The Humber,E06000011,East Riding of Yorkshire,74.81,198915,78779,120136,39.6,60.4,"East Riding of Yorkshire, United Kingdom",53.9112323,-0.5813104
363,85,E12000003,Yorkshire and The Humber,E06000012,North East Lincolnshire,67.94,78982,23797,55185,30.13,69.87,"North East Lincolnshire, United Kingdom",53.53680335,-0.0936809634853489
364,86,E12000003,Yorkshire and The Humber,E06000013,North Lincolnshire,71.92,88862,29947,58915,33.7,66.3,"North Lincolnshire, United Kingdom",53.5897441,-0.602322929525656
365,87,E12000003,Yorkshire and The Humber,E06000014,York,70.69,109600,63617,45983,58.04,41.96,"York, United Kingdom",53.9590555,-1.081536
366,313,E12000003,Yorkshire and The Humber,E07000163,Craven,81.02,35891,16930,18961,47.17,52.83,"Craven, United Kingdom",54.0541827,-2.1610111839021
367,314,E12000003,Yorkshire and The Humber,E07000164,Hambleton,78.45,54982,25480,29502,46.34,53.66,"Hambleton, United Kingdom",54.25071715,-1.43672381189808
368,315,E12000003,Yorkshire and The Humber,E07000165,Harrogate,78.89,94585,48211,46374,50.97,49.03,"Harrogate, United Kingdom",53.9921491,-1.5391038
369,316,E12000003,Yorkshire and The Humber,E07000166,Richmondshire,75.15,27636,11945,15691,43.22,56.78,"Richmondshire, United Kingdom",54.3574047,-1.98499848662827
370,317,E12000003,Yorkshire and The Humber,E07000167,Ryedale,77.22,32050,14340,17710,44.74,55.26,"Ryedale, United Kingdom",54.19862115,-0.872874088054293
371,318,E12000003,Yorkshire and The Humber,E07000168,Scarborough,73.03,60511,22999,37512,38.01,61.99,"Scarborough, United Kingdom",54.2847601,-0.4090338
372,319,E12000003,Yorkshire and The Humber,E07000169,Selby,79.1,51603,21071,30532,40.83,59.17,"Selby, United Kingdom",53.7828969,-1.0633481
373,49,E12000003,Yorkshire and The Humber,E08000016,Barnsley,69.95,122909,38951,83958,31.69,68.31,"Barnsley, United Kingdom",53.5527719,-1.4827754
374,50,E12000003,Yorkshire and The Humber,E08000017,Doncaster,69.56,151182,46922,104260,31.04,68.96,"Doncaster, United Kingdom",53.5227681,-1.1335311
375,51,E12000003,Yorkshire and The Humber,E08000018,Rotherham,69.56,137387,44115,93272,32.11,67.89,"Rotherham, United Kingdom",53.4309799,-1.3554597
376,52,E12000003,Yorkshire and The Humber,E08000019,Sheffield,67.34,266753,130735,136018,49.01,50.99,"Sheffield, United Kingdom",53.3806626,-1.4702277
377,65,E12000003,Yorkshire and The Humber,E08000032,Bradford,66.72,228488,104575,123913,45.77,54.23,"Bradford, United Kingdom",53.7941567,-1.7494777
378,66,E12000003,Yorkshire and The Humber,E08000033,Calderdale,71.05,105925,46950,58975,44.32,55.68,"Calderdale, United Kingdom",53.7204748,-1.96228853296767
379,67,E12000003,Yorkshire and The Humber,E08000034,Kirklees,70.8,217240,98485,118755,45.33,54.67,"Kirklees, United Kingdom",53.64226345,-1.78094316891507
380,68,E12000003,Yorkshire and The Humber,E08000035,Leeds,71.39,387337,194863,192474,50.31,49.69,"Leeds, United Kingdom",53.7974185,-1.543794
381,69,E12000003,Yorkshire and The Humber,E08000036,Wakefield,71.17,175042,58877,116165,33.64,66.36,"Wakefield, United Kingdom",53.6825669,-1.5000465
